{
"league_name": "National Hockey League", 
"teams": [
  {"name":"Anaheim Ducks","venue":"Honda Center","L":5.0,"S":-1.0,"coordinates":{"lat":33.807525,"lon":-117.876707},"state":"California"},
  {"name":"Boston Bruins","venue":"TD Garden","L":8.0,"S":0.0,"coordinates":{"lat":42.366245,"lon":-71.062485},"state":"Massachusetts"},
  {"name":"Buffalo Sabres","venue":"KeyBank Center","L":6.0,"S":-2.0,"coordinates":{"lat":42.875588,"lon":-78.876382},"state":"New York"},
  {"name":"Calgary Flames","venue":"Scotiabank Saddledome","L":7.0,"S":0.0,"coordinates":{"lat":51.037007,"lon":-114.062721},"state":"Alberta"},
  {"name":"Carolina Hurricanes","venue":"PNC Arena","L":5.0,"S":0.0,"coordinates":{"lat":35.803174,"lon":-78.721596},"state":"North Carolina"},
  {"name":"Chicago Blackhawks","venue":"United Center","L":8.0,"S":0.0,"coordinates":{"lat":41.880695,"lon":-87.674176},"state":"Illinois"},
  {"name":"Colorado Avalanche","venue":"Ball Arena","L":5.0,"S":1.0,"coordinates":{"lat":39.748674,"lon":-105.007690},"state":"Colorado"},
  {"name":"Columbus Blue Jackets","venue":"Nationwide Arena","L":4.5,"S":0.0,"coordinates":{"lat":39.969106,"lon":-83.006818},"state":"Ohio"},
  {"name":"Dallas Stars","venue":"American Airlines Center","L":5.0,"S":1.0,"coordinates":{"lat":32.790500,"lon":-96.810329},"state":"Texas"},
  {"name":"Detroit Red Wings","venue":"Little Caesars Arena","L":9.0,"S":0.0,"coordinates":{"lat":42.341022,"lon":-83.055645},"state":"Michigan"},
  {"name":"Edmonton Oilers","venue":"Rogers Place","L":7.0,"S":1.0,"coordinates":{"lat":53.546111,"lon":-113.490278},"state":"Alberta"},
  {"name":"Florida Panthers","venue":"Amerant Bank Arena","L":5.0,"S":3.0,"coordinates":{"lat":26.154000,"lon":-80.325000},"state":"Florida"},
  {"name":"Los Angeles Kings","venue":"Crypto.com Arena","L":6.0,"S":0.0,"coordinates":{"lat":34.043017,"lon":-118.267254},"state":"California"},
  {"name":"Minnesota Wild","venue":"Xcel Energy Center","L":6.0,"S":0.0,"coordinates":{"lat":44.944487,"lon":-93.101548},"state":"Minnesota"},
  {"name":"Montreal Canadiens","venue":"Bell Centre","L":8.0,"S":0.0,"coordinates":{"lat":45.496008,"lon":-73.569177},"state":"Quebec"},
  {"name":"Nashville Predators","venue":"Bridgestone Arena","L":5.0,"S":-1.0,"coordinates":{"lat":36.159667,"lon":-86.778477},"state":"Tennessee"},
  {"name":"New Jersey Devils","venue":"Prudential Center","L":6.5,"S":0.0,"coordinates":{"lat":40.733573,"lon":-74.171222},"state":"New Jersey"},
  {"name":"New York Islanders","venue":"UBS Arena","L":7.0,"S":0.0,"coordinates":{"lat":40.726392,"lon":-73.704339},"state":"New York"},
  {"name":"New York Rangers","venue":"Madison Square Garden","L":8.0,"S":0.0,"coordinates":{"lat":40.750504,"lon":-73.993439},"state":"New York"},
  {"name":"Ottawa Senators","venue":"Canadian Tire Centre","L":7.0,"S":0.0,"coordinates":{"lat":45.296909,"lon":-75.966942},"state":"Ontario"},
  {"name":"Philadelphia Flyers","venue":"Wells Fargo Center","L":6.0,"S":0.0,"coordinates":{"lat":39.901230,"lon":-75.172020},"state":"Pennsylvania"},
  {"name":"Pittsburgh Penguins","venue":"PPG Paints Arena","L":6.0,"S":0.5,"coordinates":{"lat":40.439722,"lon":-80.015833},"state":"Pennsylvania"},
  {"name":"San Jose Sharks","venue":"SAP Center","L":5.0,"S":-1.0,"coordinates":{"lat":37.332800,"lon":-121.901800},"state":"California"},
  {"name":"Seattle Kraken","venue":"Climate Pledge Arena","L":2.0,"S":3.0,"coordinates":{"lat":47.622548,"lon":-122.354813},"state":"Washington"},
  {"name":"St. Louis Blues","venue":"Enterprise Center","L":6.0,"S":0.0,"coordinates":{"lat":38.626004,"lon":-90.188538},"state":"Missouri"},
  {"name":"Tampa Bay Lightning","venue":"Benchmark International Arena","L":5.0,"S":2.0,"coordinates":{"lat":27.942500,"lon":-82.451200},"state":"Florida"},
  {"name":"Toronto Maple Leafs","venue":"Scotiabank Arena","L":9.0,"S":0.0,"coordinates":{"lat":43.643475,"lon":-79.379379},"state":"Florida"},
  {"name":"Vancouver Canucks","venue":"Rogers Arena","L":7.0,"S":0.0,"coordinates":{"lat":49.277885,"lon":-123.108379},"state":"Ontario"},
  {"name":"Vegas Golden Knights","venue":"T-Mobile Arena","L":4.0,"S":2.0,"coordinates":{"lat":36.102504,"lon":-115.178729},"state":"Nevada"},
  {"name":"Washington Capitals","venue":"Capital One Arena","L":6.0,"S":0.0,"coordinates":{"lat":38.898129,"lon":-77.020813},"state":"District of Columbia"},
  {"name":"Winnipeg Jets","venue":"Canada Life Centre","L":6.0,"S":1.5,"coordinates":{"lat":49.895136,"lon":-97.144701},"state":"Manitoba"},
  {"name":"Utah Mammoth","venue":"Delta Center","L":3.0,"S":3.0,"coordinates":{"lat":40.768889,"lon":-111.901111},"state":"Utah"}
]
}
