{
"league_name": "Nation Basketball Association", 
"teams": 
[
  {"name":"Atlanta Hawks","venue":"State Farm Arena","L":0.5,"S":0.0,"coordinates":{"lat":33.757290,"lon":-84.397331},"state":"Georgia"},
  {"name":"Boston Celtics","venue":"TD Garden","coordinates":{"lat":42.366303,"lon":-71.062228},"state":"Massachusetts"},
  {"name":"Brooklyn Nets","venue":"Barclays Center","coordinates":{"lat":40.682650,"lon":-73.974689},"state":"New York"},
  {"name":"Charlotte Hornets","venue":"Spectrum Center","coordinates":{"lat":35.225000,"lon":-80.839167},"state":"North Carolina"},
  {"name":"Chicago Bulls","venue":"United Center","coordinates":{"lat":41.880556,"lon":-87.674167},"state":"Illinois"},
  {"name":"Cleveland Cavaliers","venue":"Rocket Mortgage FieldHouse","coordinates":{"lat":41.496389,"lon":-81.688056},"state":"Ohio"},
  {"name":"Dallas Mavericks","venue":"American Airlines Center","coordinates":{"lat":32.790500,"lon":-96.810400},"state":"Texas"},
  {"name":"Denver Nuggets","venue":"Ball Arena","coordinates":{"lat":39.748611,"lon":-105.007500},"state":"Colorado"},
  {"name":"Detroit Pistons","venue":"Little Caesars Arena","coordinates":{"lat":42.341111,"lon":-83.055000},"state":"Michigan"},
  {"name":"Golden State Warriors","venue":"Chase Center","coordinates":{"lat":37.767000,"lon":-122.387000},"state":"California"},
  {"name":"Houston Rockets","venue":"Toyota Center","coordinates":{"lat":29.750833,"lon":-95.362222},"state":"Texas"},
  {"name":"Indiana Pacers","venue":"Gainbridge Fieldhouse","coordinates":{"lat":39.763889,"lon":-86.155556},"state":"Indiana"},
  {"name":"Los Angeles Clippers","venue":"Intuit Dome","coordinates":{"lat":33.958111,"lon":-118.341667},"state":"California"},
  {"name":"Los Angeles Lakers","venue":"Crypto.com Arena","coordinates":{"lat":34.043017,"lon":-118.267254},"state":"California"},
  {"name":"Memphis Grizzlies","venue":"FedExForum","coordinates":{"lat":35.138214,"lon":-90.050103},"state":"Tennessee"},
  {"name":"Miami Heat","venue":"Kaseya Center","coordinates":{"lat":25.781389,"lon":-80.188056},"state":"Florida"},
  {"name":"Milwaukee Bucks","venue":"Fiserv Forum","coordinates":{"lat":43.043611,"lon":-87.916944},"state":"Wisconsin"},
  {"name":"Minnesota Timberwolves","venue":"Target Center","coordinates":{"lat":44.979722,"lon":-93.276111},"state":"Minnesota"},
  {"name":"New Orleans Pelicans","venue":"Smoothie King Center","coordinates":{"lat":29.949889,"lon":-90.081944},"state":"Louisiana"},
  {"name":"New York Knicks","venue":"Madison Square Garden","coordinates":{"lat":40.750556,"lon":-73.993611},"state":"New York"},
  {"name":"Oklahoma City Thunder","venue":"Paycom Center","coordinates":{"lat":35.463056,"lon":-97.515278},"state":"Oklahoma"},
  {"name":"Orlando Magic","venue":"Kia Center","coordinates":{"lat":28.539167,"lon":-81.383611},"state":"Pennsylvania"},
  {"name":"Philadelphia 76ers","venue":"Wells Fargo Center","coordinates":{"lat":39.901111,"lon":-75.171944},"state":"Pennsylvania"},
  {"name":"Phoenix Suns","venue":"Footprint Center","coordinates":{"lat":33.445833,"lon":-112.071944},"state":"Arizona"},
  {"name":"Portland Trail Blazers","venue":"Moda Center","coordinates":{"lat":45.531111,"lon":-122.666667},"state":"Oregon"},
  {"name":"Sacramento Kings","venue":"Golden 1 Center","coordinates":{"lat":38.580672,"lon":-121.499001},"state":"California"},
  {"name":"San Antonio Spurs","venue":"Frost Bank Center","coordinates":{"lat":29.426944,"lon":-98.486111},"state":"Texas"},
  {"name":"Toronto Raptors","venue":"Scotiabank Arena","coordinates":{"lat":43.643333,"lon":-79.379167},"state":"Ontario"},
  {"name":"Utah Jazz","venue":"Delta Center","coordinates":{"lat":40.768889,"lon":-111.901111},"state":"Utah"},
  {"name":"Washington Wizards","venue":"Capital One Arena","coordinates":{"lat":38.898056,"lon":-77.020833},"state":"District of Columbia"}
]
}