{
"league_name": "National Football League", 
"weight": 0.9,
"teams": [
  {"name":"Arizona Cardinals","venue":"State Farm Stadium","L":4.0,"S":0.0,"coordinates":{"lat":33.52728,"lon":-112.26328},"color":"#97233F","state":"Arizona"},
  {"name":"Atlanta Falcons","venue":"Mercedes-Benz Stadium","L":6.0,"S":0.0,"coordinates":{"lat":33.75549,"lon":-84.40199},"color":"#A71930","state":"Georgia"},
  {"name":"Baltimore Ravens","venue":"M&T Bank Stadium","L":6.0,"S":0.0,"coordinates":{"lat":39.27806,"lon":-76.62278},"color":"#241773","state":"Maryland"},
  {"name":"Buffalo Bills","venue":"Highmark Stadium","L":6.0,"S":0.0,"coordinates":{"lat":42.77361,"lon":-78.78694},"color":"#00338D","state":"New York"},
  {"name":"Carolina Panthers","venue":"Bank of America Stadium","L":5.0,"S":0.0,"coordinates":{"lat":35.22585,"lon":-80.85361},"color":"#0085CA","state":"North Carolina"},
  {"name":"Chicago Bears","venue":"Soldier Field","L":7.0,"S":0.0,"coordinates":{"lat":41.86237,"lon":-87.61726},"color":"#0B162A","state":"Illinois"},
  {"name":"Cincinnati Bengals","venue":"Paycor Stadium","L":6.0,"S":0.0,"coordinates":{"lat":39.09544,"lon":-84.51604},"color":"#FB4F14","state":"Ohio"},
  {"name":"Cleveland Browns","venue":"Cleveland Browns Stadium","L":6.0,"S":0.0,"coordinates":{"lat":41.50604,"lon":-81.70006},"color":"#311D00","state":"Ohio"},
  {"name":"Dallas Cowboys","venue":"AT&T Stadium","L":9.0,"S":0.0,"coordinates":{"lat":32.74784,"lon":-97.09363},"color":"#041E42","state":"Texas"},
  {"name":"Denver Broncos","venue":"Empower Field at Mile High","L":8.0,"S":0.0,"coordinates":{"lat":39.74413,"lon":-105.02083},"color":"#FB4F14","state":"Colorado"},
  {"name":"Detroit Lions","venue":"Ford Field","L":6.0,"S":0.0,"coordinates":{"lat":42.34012,"lon":-83.04634},"color":"#0076B6","state":"Michigan"},
  {"name":"Green Bay Packers","venue":"Lambeau Field","L":8.0,"S":0.0,"coordinates":{"lat":44.50131,"lon":-88.06232},"color":"darkgreen","state":"Wisconsin"},
  {"name":"Houston Texans","venue":"NRG Stadium","L":6.5,"S":0.0,"coordinates":{"lat":29.68486,"lon":-95.41167},"color":"#03202F","state":"Texas"},
  {"name":"Indianapolis Colts","venue":"Lucas Oil Stadium","L":5.0,"S":0.0,"coordinates":{"lat":39.76006,"lon":-86.16381},"color":"#002C5F","state":"Indiana"},
  {"name":"Jacksonville Jaguars","venue":"EverBank Stadium","L":4.0,"S":0.0,"coordinates":{"lat":30.32479,"lon":-81.63786},"color":"#006778","state":"Florida"},
  {"name":"Kansas City Chiefs","venue":"Arrowhead Stadium","L":7.0,"S":2.0,"coordinates":{"lat":39.04879,"lon":-94.48457},"color":"#E31837","state":"Missouri"},
  {"name":"Las Vegas Raiders","venue":"Allegiant Stadium","L":3.0,"S":2.0,"coordinates":{"lat":36.09079,"lon":-115.18395},"color":"#000000","state":"California"},
  {"name":"Los Angeles Chargers","venue":"SoFi Stadium","L":2.0,"S":0.0,"coordinates":{"lat":33.95359,"lon":-118.33963},"color":"#0080C6","state":"California"},
  {"name":"Los Angeles Rams","venue":"SoFi Stadium","L":6.0,"S":0.0,"coordinates":{"lat":33.95359,"lon":-118.33963},"color":"#003594","state":"California"},
  {"name":"Miami Dolphins","venue":"Hard Rock Stadium","L":7.0,"S":0.0,"coordinates":{"lat":25.95796,"lon":-80.23931},"color":"#008E97","state":"Florida"},
  {"name":"Minnesota Vikings","venue":"U.S. Bank Stadium","L":6.0,"S":0.0,"coordinates":{"lat":44.97377,"lon":-93.25874},"color":"#4F2683","state":"Minnesota"},
  {"name":"New England Patriots","venue":"Gillette Stadium","L":7.0,"S":0.0,"coordinates":{"lat":42.09094,"lon":-71.26434},"color":"#002244","state":"Massachusetts"},
  {"name":"New Orleans Saints","venue":"Caesars Superdome","L":6.0,"S":0.0,"coordinates":{"lat":29.95144,"lon":-90.08197},"color":"#D3BC8D","state":"Louisiana"},
  {"name":"New York Giants","venue":"MetLife Stadium","L":7.0,"S":0.0,"coordinates":{"lat":40.81361,"lon":-74.07444},"color":"#0B2265","state":"New York"},
  {"name":"New York Jets","venue":"MetLife Stadium","L":6.0,"S":0.0,"coordinates":{"lat":40.81361,"lon":-74.07444},"color":"#125740","state":"New York"},
  {"name":"Philadelphia Eagles","venue":"Lincoln Financial Field","L":7.0,"S":0.0,"coordinates":{"lat":39.90090,"lon":-75.16810},"color":"#004C54","state":"Pennsylvania"},
  {"name":"Pittsburgh Steelers","venue":"Acrisure Stadium","L":8.0,"S":0.0,"coordinates":{"lat":40.43972,"lon":-80.01583},"color":"#FFB612","state":"Pennsylvania"},
  {"name":"San Francisco 49ers","venue":"Leviâ€™s Stadium","L":7.0,"S":0.0,"coordinates":{"lat":37.40393,"lon":-121.97087},"color":"#AA0000","state":"California"},
  {"name":"Seattle Seahawks","venue":"Lumen Field","L":6.0,"S":0.0,"coordinates":{"lat":47.59510,"lon":-122.33224},"color":"#002244","state":"Washington"},
  {"name":"Tampa Bay Buccaneers","venue":"Raymond James Stadium","L":6.0,"S":0.0,"coordinates":{"lat":27.97601,"lon":-82.50367},"color":"#D50A0A","state":"Florida"},
  {"name":"Tennessee Titans","venue":"Nissan Stadium","L":6.0,"S":0.0,"coordinates":{"lat":36.16639,"lon":-86.77139},"color":"#4B92DB","state":"Tennessee"},
  {"name":"Washington Commanders","venue":"Northwest Stadium (formerly FedExField)","L":7.0,"S":0.0,"coordinates":{"lat":38.90773,"lon":-76.86429},"color":"#5A1414","state":"District of Columbia"}
]
}

